[
        {
            "title": "Päärakennus",
            "description": "Ilorannan sydän. Ruokasalit, keittiö, toimisto ja huoneet 1-4. Omenatarhasiipeen läpikulku.",
            "coordinates": {
                "latitude": 61.20300,
                "longitude": 24.62669
            }
        },
        {
            "title": "Omenatarha",
            "description": "2011 valmistunut siipi päärakennuksen yhteydessä, jossa 10 x 2hh hotellitasoista huonetta.",
            "coordinates": {
                "latitude": 61.2026426,
                "longitude": 24.6256631
            }
        },
        {
            "title": "Peltolenkki",
            "description": "Kilometrin mittainen peltolenkki, jonka varrella on ulkokuntoilurasteja.",
            "coordinates": {
                "latitude": 61.201666,
                "longitude": 24.626019
            }
        },
        {
            "title": "Punainen talo",
            "description": "Majoitushuoneet 5-16 löytyvät tästä talosta, kahdesta kerroksesta. Takapihalta löytyy kesäisin polkupyöriä ja talvisin potkureita ja pulkkia.",
            "coordinates": {
                "latitude": 61.202519,
                "longitude": 24.626357
            }
        },
        {
            "title": "Navetta",
            "description": "Parvi, Lysti, Takaluukku, Topin huone, Kirjasto, hoitohuoneet ja talvisauna. Todellinen monitoimirakennus keskellä pihaa.",
            "coordinates": {
                "latitude": 61.202389,
                "longitude": 24.627080
            }
        },
        {
            "title": "Sylvia Regina",
            "description": "Päärakennuksen alapuolella sijaitsee lasten leikkipaikka. Monipuolinen alue kätkee sisäänsä mm. koripallokentän, liukukeinun, puumajan, hiekkalaatikon ja erilaisia keinuja.",
            "coordinates": {
                "latitude": 61.202849,
                "longitude": 24.625564
            }
        },
        {
            "title": "Luontopolut",
            "description": "Jääkausipolku 2,9km ja Voimametsäpolku 2km. Riippumattoalue ja metsälaavu löytyy myös reittien varrelta.",
            "coordinates": {
                "latitude": 61.203227,
                "longitude": 24.626722
            }
        },
        {
            "title": "Parkkipaikat",
            "description": "Parkkipaikkoja on kolme. Punaisen talon sivustalla, lasten leikkipaikan alapuolella ja kolmas, jossa myös sähköpistokkeet, riihen vieressä. Mökeille ajo ja parkkeeraaminen sallittu.",
            "coordinates": {
                "latitude": 61.203588,
                "longitude": 24.625775
            }
        },
        {
            "title": "Lintutorni",
            "description": "Peltolenkin varrella kiva kohde käydä tähyilemässä Iso-Roineen aalloille.",
            "coordinates": {
                "latitude": 61.201508,
                "longitude": 24.620006
            }
        },
        {
            "title": "Rantamäki",
            "description": "Kesäisin jääkauden aikaisessa saaressa on kotieläimiä. Alueella myös laavu, kammi jha viikinkilaivva vaikka ruokailuun.",
            "coordinates": {
                "latitude": 61.201230,
                "longitude": 24.623177
            }
        },
        {
            "title": "Ranta-alue",
            "description": "Rantasaunat, savusauna, rantalentopallokenttä, lautta, SUP-laudat, veneet.",
            "coordinates": {
                "latitude": 61.200196,
                "longitude": 24.622047
            }
        },
        {
            "title": "Sinikello M1",
            "description": "Vuonna 2019 remontoitu mökki kuudelle henkilölle. Mökissä on vakiovarusteena TV, mikroaaltouuni, vedenkeitin, kahvinkeitin ja jääkaappi.",
            "coordinates": {
                "latitude": 61.201844,
                "longitude": 24.627190
            }
        },
        {
            "title": "Viherpeippo M2",
            "description": "Kodikas mökki kuudelle henkilölle. Mökissä on vakiovarusteena TV, mikroaaltouuni, vedenkeitin, kahvinkeitin ja jääkaappi.",
            "coordinates": {
                "latitude": 61.201644,
                "longitude": 24.627303
            }
        },
        {
            "title": "Punahilkka M3",
            "description": "Kodikas mökki metsän siimeksessä. Mökissä on kaksi wc/suihkuyhdistelmää ja kaksi uloskäyntiä. Mökissä on vakiovarusteena TV, mikroaaltouuni, vedenkeitin, kahvinkeitin ja jääkaappi.",
            "coordinates": {
                "latitude": 61.201350,
                "longitude": 24.627496
            }
        },
        {
            "title": "Lehmus M4",
            "description": "Höylähirsimökki, jossa yksi tilava huone sekä alkovi, jossa on kaksi kiinteää kerrossänkyä. Mökissä on vakiovarusteena TV, mikroaaltouuni, vedenkeitin, kahvinkeitin ja jääkaappi. WC/suihkutila uusittu 201.",
            "coordinates":{
                "latitude": 61.201300,
                "longitude": 24.627118
            }
        },
        {
            "title": "Pähkinä M5",
            "description": "Höylähirsimökki, jossa yksi tilava huone sekä alkovi, jossa on kaksi kiinteää kerrossänkyä. Mökissä on vakiovarusteena TV, mikroaaltouuni, vedenkeitin, kahvinkeitin ja jääkaappi. WC/suihkutila uusittu 2018.",
            "coordinates": {
                "latitude": 61.201170,
                "longitude": 24.627126
            }
        },
        {
            "title": "Ulkoaktiviteettialue",
            "description": "Tenniskentät toimii myös salibandykenttinä, trampoliinit, boccaradat ja iso nurmialue vaikka ulkoilmajoogaan tai jalkapalloon.",
            "coordinates": {
                "latitude": 61.201859,
                "longitude": 24.626641
            }
        },
        {
            "title": "Aitat",
            "description": "Pellon reunalla on kolme ihastuttavaa aittaa, joista yksi on ympärivuotiseen asumiseen soveltuva.",
            "coordinates": {
                "latitude": 61.203122,
                "longitude": 24.625374
            }
        },
        {
            "title": "Riihi",
            "description": "Juhlatilaksi hyvin soveltuva idyllinen tila. Takaosassa kiipeilyseonä. Päädyssä asustaa kesäisin kanat.",
            "coordinates": {
                "latitude": 61.203311,
                "longitude": 24.625762
            }
        }
    ]